Apartment Name,Address,Rent,Property type,Number of beds,Area (sq ft),Washer/Dryer Setup,Link,Additional,lat,lng,Town
Meadowview Apartment,"44 Southpoint Dr, Amherst,  MA 01002",1750 - 2100,Townhome,2,777 - 990,Hookup,https://www.apartments.com/meadowview-apartments-amherst-ma/55bkyvm/#55bkyvm-0-locationMap,Trail access,42.3505,-72.5331,Amherst
North 116 Flats,"653 Amherst Rd, Sunderland,  MA 01375",1590,Apartment,2,910,In unit,https://www.apartments.com/north-116-flats-sunderland-ma/j8p9lj7/,"B1-A, 2b2b, available Aug 22",42.4567,-72.5601,Sunderland
University Crossing,"36 Greenleaves Dr, Hadley,  MA 01035",1899,Apartment,2,1135,Hookup (possible),https://www.apartments.com/university-crossing-hadley-ma/qwrx0hy/,2 Bed 2 Bath Den,42.3523,-72.5845,Hadley
Riverboat Village,"173 Riverboat Rd, South Hadley, MA 01075",1800-1900,Apartment,2,850,Hookup,https://www.apartments.com/riverboat-village-south-hadley-ma/rpvnbw3/,"2b1.5b, inconvenient location",42.2505831,-72.6122892,South Hadley
NA,69 Southpoint Dr,2050,Townhome,2,990,In unit,https://www.apartments.com/69-southpoint-dr-amherst-ma/63k76xr/,available May 1,42.3507,-72.5329,Amherst
